{"10041":{"name":"Regionalverb. Saarbrücken","lat":49.2447573,"lng":6.9716629,"pricePerSqm":1953},"10042":{"name":"Merzig-Wadern","lat":49.4926094,"lng":6.6336942,"pricePerSqm":2522},"10043":{"name":"Neunkirchen","lat":49.345482,"lng":7.178148,"pricePerSqm":1783},"10044":{"name":"Saarlouis","lat":49.31506,"lng":6.75122,"pricePerSqm":2110},"10045":{"name":"Saarpfalz-Kreis","lat":49.2613761,"lng":7.1982316,"pricePerSqm":2166},"10046":{"name":"St. Wendel","lat":49.468359,"lng":7.173032,"pricePerSqm":1771},"11000":{"name":"Berlin","lat":52.51767,"lng":13.405538,"pricePerSqm":4870},"12051":{"name":"Brandenburg an der Havel","lat":52.408651,"lng":12.563364,"pricePerSqm":2841},"12052":{"name":"Cottbus","lat":51.759345,"lng":14.335117,"pricePerSqm":2282},"12053":{"name":"Frankfurt (Oder)","lat":52.344651,"lng":14.551151,"pricePerSqm":2651},"12054":{"name":"Potsdam","lat":52.400355,"lng":13.05358,"pricePerSqm":4545},"12060":{"name":"Barnim","lat":52.8019322,"lng":13.6771933,"pricePerSqm":3085},"12061":{"name":"Dahme-Spreewald","lat":52.0739107,"lng":13.8668655,"pricePerSqm":3823},"12062":{"name":"Elbe-Elster","lat":51.6271759,"lng":13.4805453,"pricePerSqm":1224},"12063":{"name":"Havelland","lat":52.6244438,"lng":12.6847264,"pricePerSqm":3542},"12064":{"name":"Märkisch-Oderland","lat":52.6387335,"lng":14.178299,"pricePerSqm":2986},"12065":{"name":"Oberhavel","lat":52.918881,"lng":13.2279803,"pricePerSqm":3435},"12066":{"name":"Oberspreewald-Lausitz","lat":51.6309052,"lng":14.0339298,"pricePerSqm":1865},"12067":{"name":"Oder-Spree","lat":52.2504354,"lng":14.2685781,"pricePerSqm":2851},"12068":{"name":"Ostprignitz-Ruppin","lat":53.0010645,"lng":12.703367,"pricePerSqm":2875},"12069":{"name":"Potsdam-Mittelmark","lat":52.2682985,"lng":12.7013596,"pricePerSqm":3794},"12070":{"name":"Prignitz","lat":53.118372,"lng":12.055363,"pricePerSqm":2521},"12071":{"name":"Spree-Neiße","lat":51.7813957,"lng":14.1970946,"pricePerSqm":1722},"12072":{"name":"Teltow-Fläming","lat":52.1010266,"lng":13.2652656,"pricePerSqm":2904},"12073":{"name":"Uckermark","lat":53.331298,"lng":13.707767,"pricePerSqm":1974},"13003":{"name":"Rostock","lat":54.088548,"lng":12.135993,"pricePerSqm":3112},"13004":{"name":"Schwerin","lat":53.628545,"lng":11.414434,"pricePerSqm":2630},"13071":{"name":"Mecklenburgische Seenplatte","lat":53.5838993,"lng":13.0638679,"pricePerSqm":2170},"13073":{"name":"Vorpommern-Rügen","lat":54.2305684,"lng":12.8070296,"pricePerSqm":3424},"13074":{"name":"Nordwestmecklenburg","lat":53.8002812,"lng":11.2879208,"pricePerSqm":2781},"13075":{"name":"Vorpommern-Greifswald","lat":53.7245862,"lng":13.8981847,"pricePerSqm":3832},"13076":{"name":"Ludwigslust-Parchim","lat":53.454421,"lng":11.4828447,"pricePerSqm":1930},"14511":{"name":"Chemnitz","lat":50.833593,"lng":12.921602,"pricePerSqm":1670},"14521":{"name":"Erzgebirgskreis","lat":50.6018498,"lng":12.9567835,"pricePerSqm":1208},"14522":{"name":"Mittelsachsen","lat":50.9348991,"lng":13.0428111,"pricePerSqm":1450},"14523":{"name":"Vogtlandkreis","lat":50.4240551,"lng":12.2524349,"pricePerSqm":1196},"14524":{"name":"Zwickau","lat":50.718556,"lng":12.495641,"pricePerSqm":1307},"14612":{"name":"Dresden","lat":51.051697,"lng":13.736883,"pricePerSqm":3042},"14625":{"name":"Bautzen","lat":51.180868,"lng":14.427688,"pricePerSqm":1662},"14626":{"name":"Görlitz","lat":51.155287,"lng":14.988035,"pricePerSqm":1226},"14627":{"name":"Meißen","lat":51.159993,"lng":13.468635,"pricePerSqm":2238},"14628":{"name":"Sächs. Schweiz-Osterzgebirge","lat":50.9033373,"lng":13.9237684,"pricePerSqm":2155},"14713":{"name":"Leipzig","lat":51.338288,"lng":12.377931,"pricePerSqm":3210},"14729":{"name":"Leipzig","lat":51.3406321,"lng":12.3747329,"pricePerSqm":2323},"14730":{"name":"Nordsachsen","lat":51.4420848,"lng":13.0383672,"pricePerSqm":1765},"15001":{"name":"Dessau-Roßlau","lat":51.834703,"lng":12.245715,"pricePerSqm":1717},"15002":{"name":"Halle (Saale)","lat":51.482478,"lng":11.970666,"pricePerSqm":2358},"15003":{"name":"Magdeburg","lat":52.126248,"lng":11.632726,"pricePerSqm":2215},"15081":{"name":"Altmarkkreis Salzwedel","lat":52.6912307,"lng":11.2303736,"pricePerSqm":1749},"15082":{"name":"Anhalt-Bitterfeld","lat":51.8167973,"lng":12.010507,"pricePerSqm":1441},"15083":{"name":"Börde","lat":52.166272,"lng":11.483142,"pricePerSqm":1646},"15084":{"name":"Burgenlandkreis","lat":51.1290648,"lng":11.8515581,"pricePerSqm":1420},"15085":{"name":"Harz","lat":51.791278,"lng":10.952601,"pricePerSqm":1499},"15086":{"name":"Jerichower Land","lat":52.288252,"lng":12.0099979,"pricePerSqm":1477},"15087":{"name":"Mansfeld-Südharz","lat":51.5345635,"lng":11.3350904,"pricePerSqm":1297},"15088":{"name":"Saalekreis","lat":51.4546904,"lng":11.8505089,"pricePerSqm":1861},"15089":{"name":"Salzlandkreis","lat":51.8509799,"lng":11.6004622,"pricePerSqm":1314},"15090":{"name":"Stendal","lat":52.605755,"lng":11.858833,"pricePerSqm":1464},"15091":{"name":"Wittenberg","lat":51.867003,"lng":12.645554,"pricePerSqm":1387},"16051":{"name":"Erfurt","lat":50.977122,"lng":11.027236,"pricePerSqm":2890},"16052":{"name":"Gera","lat":50.876147,"lng":12.080429,"pricePerSqm":1265},"16053":{"name":"Jena","lat":50.93006,"lng":11.591842,"pricePerSqm":3298},"16054":{"name":"Suhl","lat":50.609218,"lng":10.691867,"pricePerSqm":1756},"16055":{"name":"Weimar","lat":50.980761,"lng":11.329741,"pricePerSqm":2672},"16061":{"name":"Eichsfeld","lat":51.3913711,"lng":10.2318104,"pricePerSqm":1410},"16062":{"name":"Nordhausen","lat":51.500441,"lng":10.791619,"pricePerSqm":1533},"16063":{"name":"Wartburgkreis","lat":50.8904031,"lng":10.2412685,"pricePerSqm":1501},"16064":{"name":"Unstrut-Hainich-Kreis","lat":51.1877205,"lng":10.5744796,"pricePerSqm":1243},"16065":{"name":"Kyffhäuserkreis","lat":51.3146113,"lng":10.8382263,"pricePerSqm":1289},"16066":{"name":"Schmalkalden-Meiningen","lat":50.6217561,"lng":10.3417729,"pricePerSqm":1420},"16067":{"name":"Gotha","lat":50.948759,"lng":10.70337,"pricePerSqm":1695},"16068":{"name":"Sömmerda","lat":51.159368,"lng":11.118975,"pricePerSqm":1799},"16069":{"name":"Hildburghausen","lat":50.425612,"lng":10.729007,"pricePerSqm":1387},"16070":{"name":"Ilm-Kreis","lat":50.7291643,"lng":10.9575149,"pricePerSqm":1752},"16071":{"name":"Weimarer Land","lat":50.9567989,"lng":11.2053748,"pricePerSqm":2062},"16072":{"name":"Sonneberg","lat":50.357569,"lng":11.175725,"pricePerSqm":1420},"16073":{"name":"Saalfeld-Rudolstadt","lat":50.6280079,"lng":11.2869459,"pricePerSqm":1254},"16074":{"name":"Saale-Holzland-Kreis","lat":50.9041255,"lng":11.7321914,"pricePerSqm":1821},"16075":{"name":"Saale-Orla-Kreis","lat":50.623351,"lng":11.7208511,"pricePerSqm":1190},"16076":{"name":"Greiz","lat":50.654739,"lng":12.201545,"pricePerSqm":1133},"16077":{"name":"Altenburger Land","lat":50.955291,"lng":12.3808622,"pricePerSqm":1179},"08311":{"name":"Freiburg im Breisgau","lat":47.994786,"lng":7.849877,"pricePerSqm":5306},"08111":{"name":"Stuttgart","lat":48.775817,"lng":9.177734,"pricePerSqm":4756},"08435":{"name":"Bodenseekreis","lat":47.7309856,"lng":9.3752367,"pricePerSqm":4315},"08221":{"name":"Heidelberg","lat":49.410524,"lng":8.705543,"pricePerSqm":4312},"08115":{"name":"Böblingen","lat":48.685296,"lng":9.009663,"pricePerSqm":4240},"08421":{"name":"Ulm","lat":48.398454,"lng":9.990402,"pricePerSqm":4162},"08212":{"name":"Karlsruhe","lat":49.009626,"lng":8.405282,"pricePerSqm":4026},"08116":{"name":"Esslingen","lat":48.741347,"lng":9.309565,"pricePerSqm":4002},"08118":{"name":"Ludwigsburg","lat":48.896233,"lng":9.190393,"pricePerSqm":3908},"08335":{"name":"Konstanz","lat":47.662757,"lng":9.175957,"pricePerSqm":3907},"08211":{"name":"Baden-Baden","lat":48.761794,"lng":8.239951,"pricePerSqm":3787},"08416":{"name":"Tübingen","lat":48.520863,"lng":9.054572,"pricePerSqm":3735},"08315":{"name":"Breisgau-Hochschwarzwald","lat":47.941164,"lng":7.8471664,"pricePerSqm":3721},"08316":{"name":"Emmendingen","lat":48.122053,"lng":7.847625,"pricePerSqm":3573},"08436":{"name":"Ravensburg","lat":47.78366,"lng":9.615089,"pricePerSqm":3568},"08119":{"name":"Rems-Murr-Kreis","lat":48.8966799,"lng":9.5037124,"pricePerSqm":3564},"08415":{"name":"Reutlingen","lat":48.49208,"lng":9.212006,"pricePerSqm":3557},"08222":{"name":"Mannheim","lat":49.48778,"lng":8.466275,"pricePerSqm":3533},"08215":{"name":"Karlsruhe","lat":49.0068705,"lng":8.4034195,"pricePerSqm":3525},"08336":{"name":"Lörrach","lat":47.612096,"lng":7.659191,"pricePerSqm":3522},"08125":{"name":"Heilbronn","lat":49.142291,"lng":9.218655,"pricePerSqm":3451},"08425":{"name":"Alb-Donau-Kreis","lat":48.3869659,"lng":9.7286993,"pricePerSqm":3423},"08226":{"name":"Rhein-Neckar-Kreis","lat":49.3999478,"lng":8.5655886,"pricePerSqm":3355},"08121":{"name":"Heilbronn","lat":49.140428,"lng":9.217953,"pricePerSqm":3352},"08236":{"name":"Enzkreis","lat":48.9182433,"lng":8.8432249,"pricePerSqm":3234},"08426":{"name":"Biberach","lat":48.097465,"lng":9.79203,"pricePerSqm":3232},"08216":{"name":"Rastatt","lat":48.857703,"lng":8.202529,"pricePerSqm":3191},"08231":{"name":"Pforzheim","lat":48.891285,"lng":8.699166,"pricePerSqm":3189},"08337":{"name":"Waldshut","lat":47.632439,"lng":8.271113,"pricePerSqm":3163},"08136":{"name":"Ostalbkreis","lat":48.8876732,"lng":10.0992474,"pricePerSqm":3108},"08317":{"name":"Ortenaukreis","lat":48.4376829,"lng":8.0098512,"pricePerSqm":3016},"08126":{"name":"Hohenlohekreis","lat":49.2633388,"lng":9.621973,"pricePerSqm":2986},"08117":{"name":"Göppingen","lat":48.703267,"lng":9.653964,"pricePerSqm":2977},"08327":{"name":"Tuttlingen","lat":47.983725,"lng":8.818761,"pricePerSqm":2917},"08235":{"name":"Calw","lat":48.713372,"lng":8.741194,"pricePerSqm":2836},"08237":{"name":"Freudenstadt","lat":48.463876,"lng":8.411368,"pricePerSqm":2827},"08135":{"name":"Heidenheim","lat":48.677736,"lng":10.154639,"pricePerSqm":2743},"08127":{"name":"Schwäbisch Hall","lat":49.112856,"lng":9.735145,"pricePerSqm":2656},"08326":{"name":"Schwarzwald-Baar-Kreis","lat":47.9801796,"lng":8.4890803,"pricePerSqm":2645},"08325":{"name":"Rottweil","lat":48.167866,"lng":8.627337,"pricePerSqm":2623},"08437":{"name":"Sigmaringen","lat":48.086623,"lng":9.214788,"pricePerSqm":2602},"08128":{"name":"Main-Tauber-Kreis","lat":49.5714135,"lng":9.6710459,"pricePerSqm":2471},"08417":{"name":"Zollernalbkreis","lat":48.2603683,"lng":8.9124498,"pricePerSqm":2449},"08225":{"name":"Neckar-Odenwald-Kreis","lat":49.4678557,"lng":9.2709386,"pricePerSqm":2286},"09162":{"name":"München","lat":48.137683,"lng":11.575997,"pricePerSqm":8028},"09184":{"name":"München","lat":48.249173,"lng":11.65188,"pricePerSqm":7424},"09182":{"name":"Miesbach","lat":47.788844,"lng":11.834173,"pricePerSqm":7301},"09188":{"name":"Starnberg","lat":47.996607,"lng":11.33837,"pricePerSqm":6975},"09175":{"name":"Ebersberg","lat":48.078429,"lng":11.968817,"pricePerSqm":6357},"09180":{"name":"Garmisch-Partenkirchen","lat":47.492447,"lng":11.086118,"pricePerSqm":6206},"09179":{"name":"Fürstenfeldbruck","lat":48.182775,"lng":11.253092,"pricePerSqm":5651},"09173":{"name":"Bad Tölz-Wolfratshausen","lat":47.7376726,"lng":11.5263504,"pricePerSqm":5543},"09174":{"name":"Dachau","lat":48.263327,"lng":11.437493,"pricePerSqm":5527},"09163":{"name":"Rosenheim","lat":47.856358,"lng":12.128932,"pricePerSqm":5230},"09187":{"name":"Rosenheim","lat":47.8557873,"lng":12.1272983,"pricePerSqm":5220},"09178":{"name":"Freising","lat":48.403627,"lng":11.748361,"pricePerSqm":5193},"09177":{"name":"Erding","lat":48.306323,"lng":11.907169,"pricePerSqm":4835},"09172":{"name":"Berchtesgadener Land","lat":47.7130126,"lng":12.8184933,"pricePerSqm":4813},"09261":{"name":"Landshut","lat":48.536978,"lng":12.152143,"pricePerSqm":4715},"09362":{"name":"Regensburg","lat":49.015249,"lng":12.101745,"pricePerSqm":4713},"09161":{"name":"Ingolstadt","lat":48.76542,"lng":11.423387,"pricePerSqm":4702},"09190":{"name":"Weilheim-Schongau","lat":47.8059338,"lng":11.0315421,"pricePerSqm":4698},"09181":{"name":"Landsberg am Lech","lat":48.049514,"lng":10.877828,"pricePerSqm":4666},"09771":{"name":"Aichach-Friedberg","lat":48.406034,"lng":11.062766,"pricePerSqm":4513},"09776":{"name":"Lindau (Bodensee)","lat":47.546458,"lng":9.684376,"pricePerSqm":4342},"09780":{"name":"Oberallgäu","lat":47.5669373,"lng":10.2234504,"pricePerSqm":4275},"09761":{"name":"Augsburg","lat":48.368384,"lng":10.897594,"pricePerSqm":4261},"09186":{"name":"Pfaffenhofen a.d. Ilm","lat":48.529783,"lng":11.503851,"pricePerSqm":4208},"09763":{"name":"Kempten (Allgäu)","lat":47.724016,"lng":10.317823,"pricePerSqm":4090},"09772":{"name":"Augsburg","lat":48.3690341,"lng":10.8979522,"pricePerSqm":4056},"09176":{"name":"Eichstätt","lat":48.891094,"lng":11.185203,"pricePerSqm":4056},"09562":{"name":"Erlangen","lat":49.59508,"lng":11.003274,"pricePerSqm":4022},"09461":{"name":"Bamberg","lat":49.893387,"lng":10.886786,"pricePerSqm":3953},"09189":{"name":"Traunstein","lat":47.868787,"lng":12.647604,"pricePerSqm":3902},"09777":{"name":"Ostallgäu","lat":47.8126248,"lng":10.5586289,"pricePerSqm":3837},"09661":{"name":"Aschaffenburg","lat":49.973506,"lng":9.147832,"pricePerSqm":3789},"09274":{"name":"Landshut","lat":48.536217,"lng":12.1516551,"pricePerSqm":3748},"09564":{"name":"Nürnberg","lat":49.450938,"lng":11.075269,"pricePerSqm":3720},"09185":{"name":"Neuburg-Schrobenhausen","lat":48.64367,"lng":11.2304216,"pricePerSqm":3698},"09764":{"name":"Memmingen","lat":47.984959,"lng":10.181558,"pricePerSqm":3695},"09778":{"name":"Unterallgäu","lat":48.0248748,"lng":10.4570746,"pricePerSqm":3679},"09375":{"name":"Regensburg","lat":49.0195333,"lng":12.0974869,"pricePerSqm":3653},"09663":{"name":"Würzburg","lat":49.79393,"lng":9.93725,"pricePerSqm":3650},"09573":{"name":"Fürth","lat":49.4885711,"lng":10.9587203,"pricePerSqm":3576},"09775":{"name":"Neu-Ulm","lat":48.392999,"lng":9.998683,"pricePerSqm":3552},"09572":{"name":"Erlangen-Höchstadt","lat":49.6306886,"lng":10.8471804,"pricePerSqm":3550},"09563":{"name":"Fürth","lat":49.478592,"lng":10.987404,"pricePerSqm":3509},"09565":{"name":"Schwabach","lat":49.328888,"lng":11.024451,"pricePerSqm":3494},"09273":{"name":"Kelheim","lat":48.919056,"lng":11.869879,"pricePerSqm":3455},"09183":{"name":"Mühldorf a. Inn","lat":48.241864,"lng":12.524963,"pricePerSqm":3447},"09171":{"name":"Altötting","lat":48.227986,"lng":12.67892,"pricePerSqm":3386},"09774":{"name":"Günzburg","lat":48.45447,"lng":10.281413,"pricePerSqm":3368},"09263":{"name":"Straubing","lat":48.881802,"lng":12.56951,"pricePerSqm":3294},"09373":{"name":"Neumarkt i.d. OPf.","lat":49.279417,"lng":11.45894,"pricePerSqm":3236},"09779":{"name":"Donau-Ries","lat":48.8100863,"lng":10.6998994,"pricePerSqm":3212},"09278":{"name":"Straubing-Bogen","lat":48.9176201,"lng":12.7165209,"pricePerSqm":3185},"09574":{"name":"Nürnberger Land","lat":49.5091089,"lng":11.3569618,"pricePerSqm":3170},"09576":{"name":"Roth","lat":49.244523,"lng":11.090664,"pricePerSqm":3117},"09762":{"name":"Kaufbeuren","lat":47.879698,"lng":10.620583,"pricePerSqm":3085},"09279":{"name":"Dingolfing-Landau","lat":48.6393657,"lng":12.6617349,"pricePerSqm":3083},"09773":{"name":"Dillingen a.d. Donau","lat":48.577159,"lng":10.496633,"pricePerSqm":3078},"09262":{"name":"Passau","lat":48.572926,"lng":13.458449,"pricePerSqm":3023},"09671":{"name":"Aschaffenburg","lat":49.9706701,"lng":9.1384857,"pricePerSqm":3019},"09462":{"name":"Bayreuth","lat":49.943752,"lng":11.575301,"pricePerSqm":3007},"09474":{"name":"Forchheim","lat":49.720292,"lng":11.0594,"pricePerSqm":2996},"09361":{"name":"Amberg","lat":49.445278,"lng":11.856142,"pricePerSqm":2973},"09575":{"name":"Neustadt a.d. Aisch-Bad Windsheim","lat":49.583431,"lng":10.4145486,"pricePerSqm":2956},"09376":{"name":"Schwandorf","lat":49.327638,"lng":12.108976,"pricePerSqm":2949},"09679":{"name":"Würzburg","lat":49.927963,"lng":10.027047,"pricePerSqm":2938},"09471":{"name":"Bamberg","lat":49.8916044,"lng":10.8868478,"pricePerSqm":2924},"09561":{"name":"Ansbach","lat":49.303682,"lng":10.577254,"pricePerSqm":2915},"09271":{"name":"Deggendorf","lat":48.842204,"lng":12.960122,"pricePerSqm":2858},"09577":{"name":"Weißenburg-Gunzenhausen","lat":49.0315646,"lng":10.9297625,"pricePerSqm":2815},"09676":{"name":"Miltenberg","lat":49.701266,"lng":9.257405,"pricePerSqm":2772},"09571":{"name":"Ansbach","lat":49.288491,"lng":10.66144,"pricePerSqm":2764},"09675":{"name":"Kitzingen","lat":49.736047,"lng":10.159239,"pricePerSqm":2728},"09275":{"name":"Passau","lat":48.5748229,"lng":13.4609744,"pricePerSqm":2690},"09678":{"name":"Schweinfurt","lat":50.0451485,"lng":10.2340647,"pricePerSqm":2596},"09662":{"name":"Schweinfurt","lat":50.045505,"lng":10.230301,"pricePerSqm":2564},"09277":{"name":"Rottal-Inn","lat":48.4118615,"lng":12.8459962,"pricePerSqm":2551},"09363":{"name":"Weiden i.d. OPf.","lat":49.676076,"lng":12.160209,"pricePerSqm":2508},"09677":{"name":"Main-Spessart","lat":49.9938504,"lng":9.7080547,"pricePerSqm":2482},"09371":{"name":"Amberg-Sulzbach","lat":49.4801852,"lng":11.7836407,"pricePerSqm":2396},"09473":{"name":"Coburg","lat":50.218128,"lng":11.077094,"pricePerSqm":2386},"09472":{"name":"Bayreuth","lat":49.9446345,"lng":11.5743543,"pricePerSqm":2374},"09374":{"name":"Neustadt a.d. Waldnaab","lat":49.732495,"lng":12.175697,"pricePerSqm":2363},"09463":{"name":"Coburg","lat":50.258421,"lng":10.964232,"pricePerSqm":2328},"09276":{"name":"Regen","lat":48.970244,"lng":13.126196,"pricePerSqm":2242},"09674":{"name":"Haßberge","lat":50.0459451,"lng":10.5904874,"pricePerSqm":2210},"09673":{"name":"Rhön-Grabfeld","lat":50.3805896,"lng":10.2055037,"pricePerSqm":2207},"09372":{"name":"Cham","lat":49.219124,"lng":12.667061,"pricePerSqm":2157},"09672":{"name":"Bad Kissingen","lat":50.200795,"lng":10.077888,"pricePerSqm":2132},"09477":{"name":"Kulmbach","lat":50.10807,"lng":11.455614,"pricePerSqm":2121},"09478":{"name":"Lichtenfels","lat":50.146042,"lng":11.064046,"pricePerSqm":2116},"09464":{"name":"Hof","lat":50.316521,"lng":11.913545,"pricePerSqm":2018},"09377":{"name":"Tirschenreuth","lat":49.878232,"lng":12.33646,"pricePerSqm":1931},"09475":{"name":"Hof","lat":50.3187507,"lng":11.9162992,"pricePerSqm":1897},"09272":{"name":"Freyung-Grafenau","lat":48.81666,"lng":13.481332,"pricePerSqm":1882},"09479":{"name":"Wunsiedel i. Fichtelgebirge","lat":50.0991112,"lng":12.0167304,"pricePerSqm":1860},"09476":{"name":"Kronach","lat":50.239015,"lng":11.325279,"pricePerSqm":1776},"04011":{"name":"Bremen","lat":53.075606,"lng":8.809338,"pricePerSqm":2506},"04012":{"name":"Bremerhaven","lat":53.543032,"lng":8.578068,"pricePerSqm":1772},"02000":{"name":"Hamburg","lat":53.550678,"lng":9.99697,"pricePerSqm":5155},"06412":{"name":"Frankfurt am Main","lat":50.11088,"lng":8.682433,"pricePerSqm":5344},"06436":{"name":"Main-Taunus-Kreis","lat":50.0995751,"lng":8.4264122,"pricePerSqm":4165},"06411":{"name":"Darmstadt","lat":49.872238,"lng":8.653838,"pricePerSqm":4023},"06414":{"name":"Wiesbaden","lat":50.081698,"lng":8.239138,"pricePerSqm":3991},"06434":{"name":"Hochtaunuskreis","lat":50.2853755,"lng":8.5036801,"pricePerSqm":3948},"06413":{"name":"Offenbach am Main","lat":50.105567,"lng":8.764442,"pricePerSqm":3872},"06433":{"name":"Groß-Gerau","lat":49.92162,"lng":8.482423,"pricePerSqm":3623},"06438":{"name":"Offenbach","lat":50.1055002,"lng":8.7610698,"pricePerSqm":3558},"06432":{"name":"Darmstadt-Dieburg","lat":49.8621782,"lng":8.8776438,"pricePerSqm":3453},"06435":{"name":"Main-Kinzig-Kreis","lat":50.2119793,"lng":9.1521552,"pricePerSqm":3211},"06431":{"name":"Bergstraße","lat":49.641185,"lng":8.644017,"pricePerSqm":3203},"06439":{"name":"Rheingau-Taunus-Kreis","lat":50.1339395,"lng":8.0701608,"pricePerSqm":3136},"06440":{"name":"Wetteraukreis","lat":50.3310534,"lng":8.9338049,"pricePerSqm":3113},"06531":{"name":"Gießen","lat":50.586195,"lng":8.674877,"pricePerSqm":3005},"06611":{"name":"Kassel","lat":51.314684,"lng":9.495199,"pricePerSqm":2763},"06534":{"name":"Marburg-Biedenkopf","lat":50.8330156,"lng":8.7332066,"pricePerSqm":2577},"06437":{"name":"Odenwaldkreis","lat":49.6634191,"lng":8.9663284,"pricePerSqm":2537},"06532":{"name":"Lahn-Dill-Kreis","lat":50.6390064,"lng":8.3265327,"pricePerSqm":2534},"06631":{"name":"Fulda","lat":50.55323,"lng":9.675061,"pricePerSqm":2496},"06633":{"name":"Kassel","lat":51.3157833,"lng":9.4978479,"pricePerSqm":2314},"06533":{"name":"Limburg-Weilburg","lat":50.4375507,"lng":8.2003467,"pricePerSqm":2282},"06632":{"name":"Hersfeld-Rotenburg","lat":50.9326685,"lng":9.7392113,"pricePerSqm":1961},"06634":{"name":"Schwalm-Eder-Kreis","lat":51.0152435,"lng":9.3270844,"pricePerSqm":1855},"06635":{"name":"Waldeck-Frankenberg","lat":51.14348,"lng":8.8660519,"pricePerSqm":1779},"06535":{"name":"Vogelsbergkreis","lat":50.6412263,"lng":9.258772,"pricePerSqm":1668},"06636":{"name":"Werra-Meißner-Kreis","lat":51.2064861,"lng":9.8919181,"pricePerSqm":1408},"03355":{"name":"Lüneburg","lat":53.249157,"lng":10.408793,"pricePerSqm":3356},"03452":{"name":"Aurich","lat":53.469895,"lng":7.482377,"pricePerSqm":3158},"03353":{"name":"Harburg","lat":53.4562216,"lng":9.9872112,"pricePerSqm":3082},"03458":{"name":"Oldenburg","lat":53.1389753,"lng":8.2146017,"pricePerSqm":2673},"03451":{"name":"Ammerland","lat":53.2071488,"lng":8.0057609,"pricePerSqm":2999},"03101":{"name":"Braunschweig","lat":52.26249,"lng":10.520525,"pricePerSqm":2853},"03404":{"name":"Osnabrück","lat":52.27692,"lng":8.04205,"pricePerSqm":2845},"03241":{"name":"Region Hannover","lat":52.4027586,"lng":9.8010256,"pricePerSqm":2832},"03359":{"name":"Stade","lat":53.601302,"lng":9.475977,"pricePerSqm":2768},"03460":{"name":"Vechta","lat":52.726848,"lng":8.284656,"pricePerSqm":2751},"03457":{"name":"Leer","lat":53.22947,"lng":7.451416,"pricePerSqm":2748},"03361":{"name":"Verden","lat":52.847043,"lng":9.227519,"pricePerSqm":2646},"03453":{"name":"Cloppenburg","lat":52.848368,"lng":8.042518,"pricePerSqm":2608},"03251":{"name":"Diepholz","lat":52.606393,"lng":8.370605,"pricePerSqm":2547},"03462":{"name":"Wittmund","lat":53.575515,"lng":7.780018,"pricePerSqm":2526},"03151":{"name":"Gifhorn","lat":52.484369,"lng":10.54687,"pricePerSqm":2475},"03456":{"name":"Grafschaft Bentheim","lat":52.4472246,"lng":7.109039,"pricePerSqm":2455},"03356":{"name":"Osterholz","lat":53.230402,"lng":8.782826,"pricePerSqm":2442},"03459":{"name":"Osnabrück","lat":52.2719595,"lng":8.047635,"pricePerSqm":2427},"03103":{"name":"Wolfsburg","lat":52.421938,"lng":10.784975,"pricePerSqm":2412},"03454":{"name":"Emsland","lat":52.6986304,"lng":7.3661343,"pricePerSqm":2375},"03455":{"name":"Friesland","lat":53.467993,"lng":8.0221914,"pricePerSqm":2365},"03254":{"name":"Hildesheim","lat":52.150623,"lng":9.948181,"pricePerSqm":2348},"03357":{"name":"Rotenburg (Wümme)","lat":53.110417,"lng":9.403666,"pricePerSqm":2342},"03352":{"name":"Cuxhaven","lat":53.864463,"lng":8.69747,"pricePerSqm":2341},"03401":{"name":"Delmenhorst","lat":53.049883,"lng":8.630108,"pricePerSqm":2309},"03157":{"name":"Peine","lat":52.321764,"lng":10.227076,"pricePerSqm":2294},"03256":{"name":"Nienburg (Weser)","lat":52.640859,"lng":9.211648,"pricePerSqm":2263},"03159":{"name":"Göttingen","lat":51.533337,"lng":9.935418,"pricePerSqm":2206},"03461":{"name":"Wesermarsch","lat":53.3573141,"lng":8.3454765,"pricePerSqm":2138},"03405":{"name":"Wilhelmshaven","lat":53.520302,"lng":8.111156,"pricePerSqm":2070},"03257":{"name":"Schaumburg","lat":52.2744353,"lng":9.2090233,"pricePerSqm":2069},"03102":{"name":"Salzgitter","lat":52.153574,"lng":10.329208,"pricePerSqm":2061},"03360":{"name":"Uelzen","lat":52.96495,"lng":10.560601,"pricePerSqm":2058},"03158":{"name":"Wolfenbüttel","lat":52.163491,"lng":10.536202,"pricePerSqm":2031},"03351":{"name":"Celle","lat":52.626307,"lng":10.08067,"pricePerSqm":2021},"03155":{"name":"Northeim","lat":51.705681,"lng":10.000406,"pricePerSqm":1981},"03358":{"name":"Heidekreis","lat":52.8217435,"lng":9.6601426,"pricePerSqm":1967},"03402":{"name":"Emden","lat":53.370558,"lng":7.205946,"pricePerSqm":1944},"03154":{"name":"Helmstedt","lat":52.227571,"lng":11.010462,"pricePerSqm":1925},"03252":{"name":"Hameln-Pyrmont","lat":52.0967048,"lng":9.4156812,"pricePerSqm":1761},"03153":{"name":"Goslar","lat":51.906508,"lng":10.429312,"pricePerSqm":1618},"03354":{"name":"Lüchow-Dannenberg","lat":53.0479053,"lng":11.1762573,"pricePerSqm":1403},"03255":{"name":"Holzminden","lat":51.828764,"lng":9.447159,"pricePerSqm":1385},"05315":{"name":"Köln","lat":50.938107,"lng":6.957068,"pricePerSqm":4520},"05111":{"name":"Düsseldorf","lat":51.22422,"lng":6.780068,"pricePerSqm":4397},"05515":{"name":"Münster","lat":51.961908,"lng":7.626804,"pricePerSqm":4132},"05314":{"name":"Bonn","lat":50.734245,"lng":7.099187,"pricePerSqm":3696},"05382":{"name":"Rhein-Sieg-Kreis","lat":50.7527986,"lng":7.3813038,"pricePerSqm":3268},"05162":{"name":"Rhein-Kreis Neuss","lat":51.175917,"lng":6.6599996,"pricePerSqm":3218},"05378":{"name":"Rheinisch-Bergischer Kreis","lat":51.0140372,"lng":7.1716132,"pricePerSqm":3184},"05158":{"name":"Mettmann","lat":51.251915,"lng":6.978743,"pricePerSqm":3139},"05316":{"name":"Leverkusen","lat":51.03245,"lng":6.979767,"pricePerSqm":3109},"05362":{"name":"Rhein-Erft-Kreis","lat":50.90334,"lng":6.763334,"pricePerSqm":3100},"05334":{"name":"Städteregion Aachen","lat":50.773516,"lng":6.0848,"pricePerSqm":2931},"05114":{"name":"Krefeld","lat":51.332637,"lng":6.56089,"pricePerSqm":2821},"05558":{"name":"Coesfeld","lat":51.944948,"lng":7.166744,"pricePerSqm":2802},"05711":{"name":"Bielefeld","lat":52.021995,"lng":8.534049,"pricePerSqm":2796},"05754":{"name":"Gütersloh","lat":51.907302,"lng":8.375587,"pricePerSqm":2795},"05774":{"name":"Paderborn","lat":51.719601,"lng":8.757301,"pricePerSqm":2777},"05166":{"name":"Viersen","lat":51.25896,"lng":6.388284,"pricePerSqm":2758},"05366":{"name":"Euskirchen","lat":50.660933,"lng":6.786098,"pricePerSqm":2698},"05554":{"name":"Borken","lat":51.843222,"lng":6.858415,"pricePerSqm":2694},"05122":{"name":"Solingen","lat":51.171718,"lng":7.085665,"pricePerSqm":2694},"05966":{"name":"Olpe","lat":51.02756,"lng":7.843584,"pricePerSqm":2689},"05117":{"name":"Mülheim an der Ruhr","lat":51.428107,"lng":6.88505,"pricePerSqm":2636},"05566":{"name":"Steinfurt","lat":52.125169,"lng":7.395195,"pricePerSqm":2631},"05913":{"name":"Dortmund","lat":51.514171,"lng":7.464165,"pricePerSqm":2628},"05170":{"name":"Wesel","lat":51.65733,"lng":6.617306,"pricePerSqm":2626},"05570":{"name":"Warendorf","lat":51.950713,"lng":7.988499,"pricePerSqm":2619},"05113":{"name":"Essen","lat":51.455843,"lng":7.012583,"pricePerSqm":2602},"05116":{"name":"Mönchengladbach","lat":51.194473,"lng":6.43161,"pricePerSqm":2496},"05954":{"name":"Ennepe-Ruhr-Kreis","lat":51.3485855,"lng":7.2643242,"pricePerSqm":2444},"05911":{"name":"Bochum","lat":51.482699,"lng":7.217177,"pricePerSqm":2440},"05974":{"name":"Soest","lat":51.572543,"lng":8.106308,"pricePerSqm":2432},"05154":{"name":"Kleve","lat":51.787781,"lng":6.138858,"pricePerSqm":2429},"05978":{"name":"Unna","lat":51.534878,"lng":7.689932,"pricePerSqm":2376},"05562":{"name":"Recklinghausen","lat":51.614576,"lng":7.197544,"pricePerSqm":2372},"05124":{"name":"Wuppertal","lat":51.271288,"lng":7.195874,"pricePerSqm":2371},"05119":{"name":"Oberhausen","lat":51.470317,"lng":6.852291,"pricePerSqm":2351},"05512":{"name":"Bottrop","lat":51.521059,"lng":6.927126,"pricePerSqm":2348},"05112":{"name":"Duisburg","lat":51.433259,"lng":6.765477,"pricePerSqm":2345},"05370":{"name":"Heinsberg","lat":51.061906,"lng":6.094538,"pricePerSqm":2344},"05358":{"name":"Düren","lat":50.801678,"lng":6.482964,"pricePerSqm":2311},"05374":{"name":"Oberbergischer Kreis","lat":51.0346132,"lng":7.5243532,"pricePerSqm":2268},"05970":{"name":"Siegen-Wittgenstein","lat":50.9175961,"lng":8.137686,"pricePerSqm":2256},"05120":{"name":"Remscheid","lat":51.179878,"lng":7.194356,"pricePerSqm":2229},"05915":{"name":"Hamm","lat":51.678312,"lng":7.816947,"pricePerSqm":2226},"05914":{"name":"Hagen","lat":51.360171,"lng":7.467406,"pricePerSqm":2221},"05758":{"name":"Herford","lat":52.115598,"lng":8.673516,"pricePerSqm":2202},"05766":{"name":"Lippe","lat":51.9917626,"lng":8.9165724,"pricePerSqm":2114},"05770":{"name":"Minden-Lübbecke","lat":52.3214469,"lng":8.711927,"pricePerSqm":2101},"05916":{"name":"Herne","lat":51.540365,"lng":7.222793,"pricePerSqm":2053},"05513":{"name":"Gelsenkirchen","lat":51.510892,"lng":7.096064,"pricePerSqm":1939},"05958":{"name":"Hochsauerlandkreis","lat":51.3208265,"lng":8.268492,"pricePerSqm":1927},"05962":{"name":"Märkischer Kreis","lat":51.2734858,"lng":7.7274266,"pricePerSqm":1900},"05762":{"name":"Höxter","lat":51.775666,"lng":9.381623,"pricePerSqm":1806},"07315":{"name":"Mainz","lat":50.001959,"lng":8.271855,"pricePerSqm":4196},"07318":{"name":"Speyer","lat":49.316172,"lng":8.436572,"pricePerSqm":3390},"07334":{"name":"Germersheim","lat":49.21765,"lng":8.374177,"pricePerSqm":3128},"07211":{"name":"Trier","lat":49.757603,"lng":6.638021,"pricePerSqm":3093},"07332":{"name":"Bad Dürkheim","lat":49.460397,"lng":8.169191,"pricePerSqm":3089},"07235":{"name":"Trier-Saarburg","lat":49.71724,"lng":6.8431834,"pricePerSqm":3075},"07338":{"name":"Rhein-Pfalz-Kreis","lat":49.4294558,"lng":8.3140526,"pricePerSqm":3044},"07339":{"name":"Mainz-Bingen","lat":49.9076453,"lng":8.1207846,"pricePerSqm":3021},"07313":{"name":"Landau in der Pfalz","lat":49.196595,"lng":8.112414,"pricePerSqm":2996},"07232":{"name":"Eifelkreis Bitburg-Prüm","lat":50.0375377,"lng":6.3976527,"pricePerSqm":2963},"07316":{"name":"Neustadt an der Weinstraße","lat":49.351983,"lng":8.140755,"pricePerSqm":2955},"07311":{"name":"Frankenthal (Pfalz)","lat":49.535556,"lng":8.354282,"pricePerSqm":2943},"07314":{"name":"Ludwigshafen am Rhein","lat":49.483235,"lng":8.447899,"pricePerSqm":2871},"07319":{"name":"Worms","lat":49.629828,"lng":8.361704,"pricePerSqm":2822},"07111":{"name":"Koblenz","lat":50.359516,"lng":7.597956,"pricePerSqm":2750},"07331":{"name":"Alzey-Worms","lat":49.7543078,"lng":8.1422038,"pricePerSqm":2735},"07337":{"name":"Südliche Weinstraße","lat":49.1848072,"lng":8.063071,"pricePerSqm":2727},"07131":{"name":"Ahrweiler","lat":50.545218,"lng":7.120457,"pricePerSqm":2675},"07133":{"name":"Bad Kreuznach","lat":49.844515,"lng":7.861839,"pricePerSqm":2630},"07137":{"name":"Mayen-Koblenz","lat":50.3184377,"lng":7.2586006,"pricePerSqm":2586},"07231":{"name":"Bernkastel-Wittlich","lat":49.9294731,"lng":6.9384263,"pricePerSqm":2496},"07135":{"name":"Cochem-Zell","lat":50.1410231,"lng":7.1894684,"pricePerSqm":2466},"07138":{"name":"Neuwied","lat":50.429018,"lng":7.459692,"pricePerSqm":2456},"07312":{"name":"Kaiserslautern","lat":49.445456,"lng":7.768864,"pricePerSqm":2426},"07333":{"name":"Donnersbergkreis","lat":49.639283,"lng":7.9104292,"pricePerSqm":2287},"07141":{"name":"Rhein-Lahn-Kreis","lat":50.2649233,"lng":7.8606742,"pricePerSqm":2198},"07140":{"name":"Rhein-Hunsrück-Kreis","lat":50.0215164,"lng":7.4890547,"pricePerSqm":2094},"07143":{"name":"Westerwaldkreis","lat":50.5568937,"lng":7.8657066,"pricePerSqm":2085},"07233":{"name":"Vulkaneifel","lat":50.2316701,"lng":6.7684957,"pricePerSqm":2060},"07320":{"name":"Zweibrücken","lat":49.249189,"lng":7.363114,"pricePerSqm":2010},"07335":{"name":"Kaiserslautern","lat":49.4432174,"lng":7.7689951,"pricePerSqm":1987},"07132":{"name":"Altenkirchen (Westerwald)","lat":50.687851,"lng":7.645362,"pricePerSqm":1928},"07336":{"name":"Kusel","lat":49.537633,"lng":7.400548,"pricePerSqm":1753},"07340":{"name":"Südwestpfalz","lat":49.2225957,"lng":7.6196712,"pricePerSqm":1735},"07317":{"name":"Pirmasens","lat":49.19945,"lng":7.606009,"pricePerSqm":1523},"07134":{"name":"Birkenfeld","lat":49.650147,"lng":7.168182,"pricePerSqm":1507},"01054":{"name":"Nordfriesland","lat":54.6591472,"lng":8.9982188,"pricePerSqm":6153},"01055":{"name":"Ostholstein","lat":54.1766629,"lng":10.84762,"pricePerSqm":4176},"01003":{"name":"Lübeck","lat":53.866269,"lng":10.683932,"pricePerSqm":3521},"01062":{"name":"Stormarn","lat":53.7215127,"lng":10.3586145,"pricePerSqm":3413},"01056":{"name":"Pinneberg","lat":53.661209,"lng":9.796428,"pricePerSqm":3315},"01002":{"name":"Kiel","lat":54.321775,"lng":10.13727,"pricePerSqm":3277},"01057":{"name":"Plön","lat":54.158288,"lng":10.416369,"pricePerSqm":3212},"01060":{"name":"Segeberg","lat":53.937059,"lng":10.304193,"pricePerSqm":3020},"01053":{"name":"Herzogtum Lauenburg","lat":53.5936648,"lng":10.6643262,"pricePerSqm":3012},"01059":{"name":"Schleswig-Flensburg","lat":54.5797194,"lng":9.5331938,"pricePerSqm":2795},"01058":{"name":"Rendsburg-Eckernförde","lat":54.3015523,"lng":9.7686088,"pricePerSqm":2728},"01001":{"name":"Flensburg","lat":54.78252,"lng":9.43751,"pricePerSqm":2707},"01051":{"name":"Dithmarschen","lat":53.99748,"lng":9.26246,"pricePerSqm":2672},"01004":{"name":"Neumünster","lat":54.069895,"lng":9.988422,"pricePerSqm":2284},"01061":{"name":"Steinburg","lat":53.9817077,"lng":9.4958058,"pricePerSqm":2231}}