{"Toronto":{"name":"Toronto","lat":43.6532,"lng":-79.3832,"pricePerSqm":8462},"Montréal":{"name":"Montréal","lat":45.5017,"lng":-73.5673,"pricePerSqm":4077},"Vancouver":{"name":"Vancouver","lat":49.2827,"lng":-123.1207,"pricePerSqm":9231},"Ottawa–Gatineau":{"name":"Ottawa–Gatineau","lat":45.4215,"lng":-75.6972,"pricePerSqm":4769},"Calgary":{"name":"Calgary","lat":51.0447,"lng":-114.0719,"pricePerSqm":4231},"Edmonton":{"name":"Edmonton","lat":53.5461,"lng":-113.4938,"pricePerSqm":3077},"Winnipeg":{"name":"Winnipeg","lat":49.8951,"lng":-97.1384,"pricePerSqm":2615},"Québec":{"name":"Québec","lat":46.8139,"lng":-71.208,"pricePerSqm":2692},"Hamilton":{"name":"Hamilton","lat":43.2557,"lng":-79.8711,"pricePerSqm":6000},"Kitchener–Cambridge–Waterloo":{"name":"Kitchener–Cambridge–Waterloo","lat":43.4516,"lng":-80.4925,"pricePerSqm":5385},"London":{"name":"London","lat":42.9849,"lng":-81.2453,"pricePerSqm":3923},"Halifax":{"name":"Halifax","lat":44.6488,"lng":-63.5752,"pricePerSqm":3385},"Victoria":{"name":"Victoria","lat":48.4284,"lng":-123.3656,"pricePerSqm":6692},"Oshawa":{"name":"Oshawa","lat":43.8971,"lng":-78.8658,"pricePerSqm":6154},"Windsor":{"name":"Windsor","lat":42.3149,"lng":-83.0364,"pricePerSqm":3385},"Saskatoon":{"name":"Saskatoon","lat":52.1332,"lng":-106.67,"pricePerSqm":2692},"Regina":{"name":"Regina","lat":50.4452,"lng":-104.6189,"pricePerSqm":2462},"St. John's":{"name":"St. John's","lat":47.5615,"lng":-52.7126,"pricePerSqm":2385},"Barrie":{"name":"Barrie","lat":44.3894,"lng":-79.6903,"pricePerSqm":5308},"Kelowna":{"name":"Kelowna","lat":49.888,"lng":-119.496,"pricePerSqm":5769},"Abbotsford–Mission":{"name":"Abbotsford–Mission","lat":49.0504,"lng":-122.3045,"pricePerSqm":5769},"Sherbrooke":{"name":"Sherbrooke","lat":45.4042,"lng":-71.8929,"pricePerSqm":2308},"Trois-Rivières":{"name":"Trois-Rivières","lat":46.3432,"lng":-72.5418,"pricePerSqm":2000},"Guelph":{"name":"Guelph","lat":43.5448,"lng":-80.2482,"pricePerSqm":5538},"Moncton":{"name":"Moncton","lat":46.0878,"lng":-64.7782,"pricePerSqm":2154},"Brantford":{"name":"Brantford","lat":43.1394,"lng":-80.2644,"pricePerSqm":4462},"Saint John":{"name":"Saint John","lat":45.2733,"lng":-66.0633,"pricePerSqm":1846},"Thunder Bay":{"name":"Thunder Bay","lat":48.3809,"lng":-89.2477,"pricePerSqm":2154},"Sudbury":{"name":"Sudbury","lat":46.4917,"lng":-80.993,"pricePerSqm":2692},"Saguenay":{"name":"Saguenay","lat":48.4279,"lng":-71.0548,"pricePerSqm":1846},"Peterborough":{"name":"Peterborough","lat":44.3091,"lng":-78.3197,"pricePerSqm":4231},"Lethbridge":{"name":"Lethbridge","lat":49.6935,"lng":-112.8418,"pricePerSqm":2538},"Fredericton":{"name":"Fredericton","lat":45.9636,"lng":-66.6431,"pricePerSqm":2154},"Kingston":{"name":"Kingston","lat":44.2312,"lng":-76.486,"pricePerSqm":4077},"Belleville–Quinte West":{"name":"Belleville–Quinte West","lat":44.1628,"lng":-77.3832,"pricePerSqm":3462}}