{"Cornwall":{"name":"Cornwall","lat":50.260048,"lng":-5.120354,"pricePerSqm":3072},"West Devon":{"name":"West Devon","lat":50.620763,"lng":-4.219949,"pricePerSqm":3461},"Exeter":{"name":"Exeter","lat":50.740386,"lng":-3.5,"pricePerSqm":3196},"East Devon":{"name":"East Devon","lat":50.739713,"lng":-3.319192,"pricePerSqm":3772},"Bournemouth, Christchurch and Poole":{"name":"Bournemouth, Christchurch and Poole","lat":50.739642,"lng":-1.879906,"pricePerSqm":3427},"Isle of Wight":{"name":"Isle of Wight","lat":50.739182,"lng":-1.160215,"pricePerSqm":2663},"Havant":{"name":"Havant","lat":50.860185,"lng":-0.980021,"pricePerSqm":3508},"Rother":{"name":"Rother","lat":50.860015,"lng":0.460004,"pricePerSqm":3834},"Somerset":{"name":"Somerset","lat":50.98029,"lng":-2.780541,"pricePerSqm":3099},"Eastleigh":{"name":"Eastleigh","lat":50.979137,"lng":-1.339694,"pricePerSqm":3416},"Horsham":{"name":"Horsham","lat":50.98027,"lng":-0.440243,"pricePerSqm":4879},"Wealden":{"name":"Wealden","lat":50.980107,"lng":0.100096,"pricePerSqm":4347},"Wiltshire":{"name":"Wiltshire","lat":51.100181,"lng":-1.700697,"pricePerSqm":3588},"Winchester":{"name":"Winchester","lat":51.100555,"lng":-1.15901,"pricePerSqm":5163},"Ashford":{"name":"Ashford","lat":51.099406,"lng":0.639878,"pricePerSqm":3844},"Tonbridge and Malling":{"name":"Tonbridge and Malling","lat":51.220411,"lng":0.279832,"pricePerSqm":4491},"North Somerset":{"name":"North Somerset","lat":51.339727,"lng":-2.960976,"pricePerSqm":3435},"Hart":{"name":"Hart","lat":51.339423,"lng":-0.799543,"pricePerSqm":5330},"Epsom and Ewell":{"name":"Epsom and Ewell","lat":51.339537,"lng":-0.259844,"pricePerSqm":6193},"Croydon":{"name":"Croydon","lat":51.340219,"lng":-0.08072,"pricePerSqm":4328},"Vale of Glamorgan":{"name":"Vale of Glamorgan","lat":51.459652,"lng":-3.319148,"pricePerSqm":3188},"Windsor and Maidenhead":{"name":"Windsor and Maidenhead","lat":51.459852,"lng":-0.800907,"pricePerSqm":6274},"Hillingdon":{"name":"Hillingdon","lat":51.459713,"lng":-0.439981,"pricePerSqm":5233},"Richmond upon Thames":{"name":"Richmond upon Thames","lat":51.459587,"lng":-0.259761,"pricePerSqm":8748},"Southwark":{"name":"Southwark","lat":51.46008,"lng":-0.079943,"pricePerSqm":6272},"Bexley":{"name":"Bexley","lat":51.459817,"lng":0.100077,"pricePerSqm":4543},"Newport":{"name":"Newport","lat":51.579804,"lng":-2.961112,"pricePerSqm":2541},"South Oxfordshire":{"name":"South Oxfordshire","lat":51.579629,"lng":-1.159648,"pricePerSqm":5245},"Brent":{"name":"Brent","lat":51.580329,"lng":-0.259697,"pricePerSqm":6035},"Haringey":{"name":"Haringey","lat":51.580462,"lng":-0.079709,"pricePerSqm":7151},"Redbridge":{"name":"Redbridge","lat":51.579683,"lng":0.10007,"pricePerSqm":5502},"Pembrokeshire":{"name":"Pembrokeshire","lat":51.699371,"lng":-4.939245,"pricePerSqm":2367},"Blaenau Gwent":{"name":"Blaenau Gwent","lat":51.699963,"lng":-3.138631,"pricePerSqm":1527},"Buckinghamshire":{"name":"Buckinghamshire","lat":51.7004,"lng":-0.61959,"pricePerSqm":5297},"Chelmsford":{"name":"Chelmsford","lat":51.699677,"lng":0.459971,"pricePerSqm":4174},"Dacorum":{"name":"Dacorum","lat":51.819526,"lng":-0.439915,"pricePerSqm":5045},"Tewkesbury":{"name":"Tewkesbury","lat":51.940092,"lng":-2.060766,"pricePerSqm":3575},"North Hertfordshire":{"name":"North Hertfordshire","lat":51.94028,"lng":-0.261254,"pricePerSqm":4586},"Braintree":{"name":"Braintree","lat":51.940534,"lng":0.639924,"pricePerSqm":3557},"Cherwell":{"name":"Cherwell","lat":52.060139,"lng":-1.339541,"pricePerSqm":3922},"Milton Keynes":{"name":"Milton Keynes","lat":52.060697,"lng":-0.80049,"pricePerSqm":3592},"Ipswich":{"name":"Ipswich","lat":52.060243,"lng":1.180094,"pricePerSqm":2377},"Worcester":{"name":"Worcester","lat":52.180005,"lng":-2.240471,"pricePerSqm":2774},"East Cambridgeshire":{"name":"East Cambridgeshire","lat":52.179371,"lng":0.459464,"pricePerSqm":3800},"Mid Suffolk":{"name":"Mid Suffolk","lat":52.179521,"lng":1.00033,"pricePerSqm":3503},"Redditch":{"name":"Redditch","lat":52.30042,"lng":-1.879684,"pricePerSqm":2720},"Warwick":{"name":"Warwick","lat":52.299784,"lng":-1.519557,"pricePerSqm":4107},"North Northamptonshire":{"name":"North Northamptonshire","lat":52.299263,"lng":-0.799384,"pricePerSqm":2843},"Huntingdonshire":{"name":"Huntingdonshire","lat":52.299777,"lng":-0.079529,"pricePerSqm":3434},"Ceredigion":{"name":"Ceredigion","lat":52.419305,"lng":-4.040401,"pricePerSqm":2701},"Birmingham":{"name":"Birmingham","lat":52.420079,"lng":-1.880155,"pricePerSqm":2583},"Coventry":{"name":"Coventry","lat":52.419393,"lng":-1.519937,"pricePerSqm":2435},"East Suffolk":{"name":"East Suffolk","lat":52.41966,"lng":1.359145,"pricePerSqm":3152},"Shropshire":{"name":"Shropshire","lat":52.539602,"lng":-2.598742,"pricePerSqm":3078},"Sandwell":{"name":"Sandwell","lat":52.539961,"lng":-2.059798,"pricePerSqm":2327},"North Warwickshire":{"name":"North Warwickshire","lat":52.540876,"lng":-1.520044,"pricePerSqm":2878},"South Norfolk":{"name":"South Norfolk","lat":52.540089,"lng":1.178939,"pricePerSqm":3475},"Powys":{"name":"Powys","lat":52.660076,"lng":-3.140158,"pricePerSqm":2522},"Leicester":{"name":"Leicester","lat":52.659521,"lng":-1.160517,"pricePerSqm":2598},"Harborough":{"name":"Harborough","lat":52.659656,"lng":-0.980566,"pricePerSqm":3714},"Great Yarmouth":{"name":"Great Yarmouth","lat":52.660058,"lng":1.719964,"pricePerSqm":2314},"Telford and Wrekin":{"name":"Telford and Wrekin","lat":52.780004,"lng":-2.419494,"pricePerSqm":2491},"North West Leicestershire":{"name":"North West Leicestershire","lat":52.779244,"lng":-1.340743,"pricePerSqm":3137},"South Holland":{"name":"South Holland","lat":52.780201,"lng":0.101165,"pricePerSqm":2445},"Newcastle-under-Lyme":{"name":"Newcastle-under-Lyme","lat":52.900847,"lng":-2.420141,"pricePerSqm":2214},"South Kesteven":{"name":"South Kesteven","lat":52.899455,"lng":-0.62078,"pricePerSqm":2793},"Boston":{"name":"Boston","lat":52.900202,"lng":-0.07955,"pricePerSqm":2046},"North Norfolk":{"name":"North Norfolk","lat":52.899396,"lng":0.819198,"pricePerSqm":3203},"Amber Valley":{"name":"Amber Valley","lat":53.019845,"lng":-1.340308,"pricePerSqm":2586},"Cheshire East":{"name":"Cheshire East","lat":53.14064,"lng":-2.419026,"pricePerSqm":3279},"Mansfield":{"name":"Mansfield","lat":53.14021,"lng":-1.159031,"pricePerSqm":2040},"North Kesteven":{"name":"North Kesteven","lat":53.140569,"lng":-0.439094,"pricePerSqm":2733},"Liverpool":{"name":"Liverpool","lat":53.380348,"lng":-2.959925,"pricePerSqm":2020},"Warrington":{"name":"Warrington","lat":53.379968,"lng":-2.599692,"pricePerSqm":2791},"Sheffield":{"name":"Sheffield","lat":53.379633,"lng":-1.519954,"pricePerSqm":2469},"St. Helens":{"name":"St. Helens","lat":53.500058,"lng":-2.781418,"pricePerSqm":2027},"Salford":{"name":"Salford","lat":53.499845,"lng":-2.419953,"pricePerSqm":2512},"Manchester":{"name":"Manchester","lat":53.49982,"lng":-2.240014,"pricePerSqm":2766},"Tameside":{"name":"Tameside","lat":53.500019,"lng":-2.061421,"pricePerSqm":2348},"Rotherham":{"name":"Rotherham","lat":53.500042,"lng":-1.340121,"pricePerSqm":2102},"Doncaster":{"name":"Doncaster","lat":53.500239,"lng":-1.160583,"pricePerSqm":1929},"West Lancashire":{"name":"West Lancashire","lat":53.620438,"lng":-2.780661,"pricePerSqm":2644},"Chorley":{"name":"Chorley","lat":53.619475,"lng":-2.600179,"pricePerSqm":2393},"Bolton":{"name":"Bolton","lat":53.620307,"lng":-2.419953,"pricePerSqm":2203},"Rochdale":{"name":"Rochdale","lat":53.619537,"lng":-2.239212,"pricePerSqm":2287},"Kirklees":{"name":"Kirklees","lat":53.620426,"lng":-1.88053,"pricePerSqm":2270},"North Lincolnshire":{"name":"North Lincolnshire","lat":53.619795,"lng":-0.620962,"pricePerSqm":1973},"Calderdale":{"name":"Calderdale","lat":53.739744,"lng":-1.880528,"pricePerSqm":2124},"East Riding of Yorkshire":{"name":"East Riding of Yorkshire","lat":53.740464,"lng":-0.44087,"pricePerSqm":2427},"Leeds":{"name":"Leeds","lat":53.859803,"lng":-1.699549,"pricePerSqm":2712},"Lancaster":{"name":"Lancaster","lat":53.980008,"lng":-2.780597,"pricePerSqm":2165},"York":{"name":"York","lat":53.979415,"lng":-1.159543,"pricePerSqm":3439},"Newry, Mourne and Down":{"name":"Newry, Mourne and Down","lat":54.099463,"lng":-6.200407,"pricePerSqm":2431},"Fermanagh and Omagh":{"name":"Fermanagh and Omagh","lat":54.459572,"lng":-7.46042,"pricePerSqm":2143},"North Yorkshire":{"name":"North Yorkshire","lat":54.460214,"lng":-1.158522,"pricePerSqm":3018},"Stockton-on-Tees":{"name":"Stockton-on-Tees","lat":54.580243,"lng":-1.340674,"pricePerSqm":1853},"Redcar and Cleveland":{"name":"Redcar and Cleveland","lat":54.579393,"lng":-1.161036,"pricePerSqm":1732},"County Durham":{"name":"County Durham","lat":54.699962,"lng":-1.52011,"pricePerSqm":1505},"Gateshead":{"name":"Gateshead","lat":54.939842,"lng":-1.519025,"pricePerSqm":1720},"Northumberland":{"name":"Northumberland","lat":55.180114,"lng":-1.519608,"pricePerSqm":2260},"North Ayrshire":{"name":"North Ayrshire","lat":55.539748,"lng":-5.120046,"pricePerSqm":1460},"South Lanarkshire":{"name":"South Lanarkshire","lat":55.540318,"lng":-3.679256,"pricePerSqm":1936},"West Dunbartonshire":{"name":"West Dunbartonshire","lat":55.899995,"lng":-4.400101,"pricePerSqm":1375},"East Dunbartonshire":{"name":"East Dunbartonshire","lat":55.89985,"lng":-4.219648,"pricePerSqm":2976},"West Lothian":{"name":"West Lothian","lat":55.900513,"lng":-3.499416,"pricePerSqm":2458},"City of Edinburgh":{"name":"City of Edinburgh","lat":55.899626,"lng":-3.139578,"pricePerSqm":3250},"Fife":{"name":"Fife","lat":56.140679,"lng":-3.319462,"pricePerSqm":1897},"Perth and Kinross":{"name":"Perth and Kinross","lat":56.619805,"lng":-3.859369,"pricePerSqm":2374},"Angus":{"name":"Angus","lat":56.619502,"lng":-2.778735,"pricePerSqm":1854},"Aberdeenshire":{"name":"Aberdeenshire","lat":56.859349,"lng":-2.420415,"pricePerSqm":2185},"Highland":{"name":"Highland","lat":57.460024,"lng":-4.221171,"pricePerSqm":2373}}