{"Cornwall":{"name":"Cornwall","lat":50.200363,"lng":-5.301055,"pricePerSqm":3070},"Torbay":{"name":"Torbay","lat":50.399943,"lng":-3.501228,"pricePerSqm":2532},"Teignbridge":{"name":"Teignbridge","lat":50.599998,"lng":-3.500702,"pricePerSqm":3344},"East Devon":{"name":"East Devon","lat":50.700287,"lng":-3.349748,"pricePerSqm":3755},"Isle of Wight":{"name":"Isle of Wight","lat":50.70051,"lng":-1.099691,"pricePerSqm":2656},"Mid Devon":{"name":"Mid Devon","lat":50.800055,"lng":-3.799657,"pricePerSqm":3269},"Portsmouth":{"name":"Portsmouth","lat":50.800146,"lng":-1.100061,"pricePerSqm":2737},"Arun":{"name":"Arun","lat":50.800367,"lng":-0.649245,"pricePerSqm":3511},"Wealden":{"name":"Wealden","lat":50.799998,"lng":0.250607,"pricePerSqm":4370},"Southampton":{"name":"Southampton","lat":50.89975,"lng":-1.399634,"pricePerSqm":2585},"Winchester":{"name":"Winchester","lat":50.900413,"lng":-1.249808,"pricePerSqm":5172},"Rother":{"name":"Rother","lat":50.899765,"lng":0.400998,"pricePerSqm":3773},"Torridge":{"name":"Torridge","lat":51.000452,"lng":-4.25007,"pricePerSqm":2986},"East Hampshire":{"name":"East Hampshire","lat":51.00077,"lng":-0.950547,"pricePerSqm":4955},"Chichester":{"name":"Chichester","lat":51.000321,"lng":-0.801115,"pricePerSqm":4804},"Wiltshire":{"name":"Wiltshire","lat":51.100181,"lng":-1.700697,"pricePerSqm":3661},"Crawley":{"name":"Crawley","lat":51.099931,"lng":-0.200538,"pricePerSqm":3694},"Somerset":{"name":"Somerset","lat":51.200731,"lng":-3.50015,"pricePerSqm":3102},"Waverley":{"name":"Waverley","lat":51.199512,"lng":-0.79886,"pricePerSqm":6140},"Maidstone":{"name":"Maidstone","lat":51.199633,"lng":0.698758,"pricePerSqm":4035},"Guildford":{"name":"Guildford","lat":51.300164,"lng":-0.500263,"pricePerSqm":5819},"Dover":{"name":"Dover","lat":51.300167,"lng":1.299239,"pricePerSqm":3173},"North Somerset":{"name":"North Somerset","lat":51.399812,"lng":-2.89989,"pricePerSqm":3458},"Bath and North East Somerset":{"name":"Bath and North East Somerset","lat":51.399376,"lng":-2.44927,"pricePerSqm":4561},"West Berkshire":{"name":"West Berkshire","lat":51.400246,"lng":-1.250468,"pricePerSqm":4441},"Wokingham":{"name":"Wokingham","lat":51.400326,"lng":-0.949132,"pricePerSqm":5523},"Windsor and Maidenhead":{"name":"Windsor and Maidenhead","lat":51.39963,"lng":-0.650289,"pricePerSqm":6229},"Elmbridge":{"name":"Elmbridge","lat":51.399703,"lng":-0.350363,"pricePerSqm":8182},"Merton":{"name":"Merton","lat":51.400275,"lng":-0.200452,"pricePerSqm":6813},"Bromley":{"name":"Bromley","lat":51.399619,"lng":-0.04987,"pricePerSqm":5809},"Kensington and Chelsea":{"name":"Kensington and Chelsea","lat":51.499874,"lng":-0.200163,"pricePerSqm":13670},"Southwark":{"name":"Southwark","lat":51.50015,"lng":-0.049846,"pricePerSqm":6389},"Thurrock":{"name":"Thurrock","lat":51.499561,"lng":0.250166,"pricePerSqm":3689},"Neath Port Talbot":{"name":"Neath Port Talbot","lat":51.599217,"lng":-3.800367,"pricePerSqm":1789},"Rhondda Cynon Taf":{"name":"Rhondda Cynon Taf","lat":51.60018,"lng":-3.349957,"pricePerSqm":1816},"Monmouthshire":{"name":"Monmouthshire","lat":51.600232,"lng":-2.750138,"pricePerSqm":3666},"South Oxfordshire":{"name":"South Oxfordshire","lat":51.600018,"lng":-1.249265,"pricePerSqm":5168},"Buckinghamshire":{"name":"Buckinghamshire","lat":51.600176,"lng":-0.650617,"pricePerSqm":5337},"Harrow":{"name":"Harrow","lat":51.600197,"lng":-0.349041,"pricePerSqm":5946},"Barnet":{"name":"Barnet","lat":51.599755,"lng":-0.200215,"pricePerSqm":6530},"Haringey":{"name":"Haringey","lat":51.599655,"lng":-0.051031,"pricePerSqm":7061},"Redbridge":{"name":"Redbridge","lat":51.599336,"lng":0.099865,"pricePerSqm":5638},"Basildon":{"name":"Basildon","lat":51.599665,"lng":0.549208,"pricePerSqm":3983},"Rochford":{"name":"Rochford","lat":51.599613,"lng":0.698787,"pricePerSqm":4564},"Torfaen":{"name":"Torfaen","lat":51.700488,"lng":-3.050446,"pricePerSqm":2122},"Three Rivers":{"name":"Three Rivers","lat":51.700128,"lng":-0.50055,"pricePerSqm":6436},"Hertsmere":{"name":"Hertsmere","lat":51.699807,"lng":-0.199289,"pricePerSqm":6215},"Broxbourne":{"name":"Broxbourne","lat":51.699729,"lng":-0.050249,"pricePerSqm":4515},"Powys":{"name":"Powys","lat":51.800283,"lng":-3.651004,"pricePerSqm":2573},"Forest of Dean":{"name":"Forest of Dean","lat":51.799755,"lng":-2.599608,"pricePerSqm":3294},"West Oxfordshire":{"name":"West Oxfordshire","lat":51.799438,"lng":-1.401128,"pricePerSqm":4720},"Dacorum":{"name":"Dacorum","lat":51.799934,"lng":-0.649994,"pricePerSqm":5122},"Welwyn Hatfield":{"name":"Welwyn Hatfield","lat":51.799588,"lng":-0.199391,"pricePerSqm":4877},"East Hertfordshire":{"name":"East Hertfordshire","lat":51.799782,"lng":-0.049256,"pricePerSqm":5072},"Tendring":{"name":"Tendring","lat":51.800103,"lng":1.150038,"pricePerSqm":2906},"Carmarthenshire":{"name":"Carmarthenshire","lat":51.900521,"lng":-4.549846,"pricePerSqm":2183},"Luton":{"name":"Luton","lat":51.899774,"lng":-0.500522,"pricePerSqm":3147},"Stevenage":{"name":"Stevenage","lat":51.89978,"lng":-0.200752,"pricePerSqm":3508},"Braintree":{"name":"Braintree","lat":51.899461,"lng":0.549839,"pricePerSqm":3687},"Pembrokeshire":{"name":"Pembrokeshire","lat":51.999406,"lng":-5.00089,"pricePerSqm":2426},"Tewkesbury":{"name":"Tewkesbury","lat":51.99981,"lng":-2.150327,"pricePerSqm":3659},"West Northamptonshire":{"name":"West Northamptonshire","lat":51.999139,"lng":-1.249996,"pricePerSqm":3261},"Milton Keynes":{"name":"Milton Keynes","lat":52.000189,"lng":-0.800011,"pricePerSqm":3576},"Central Bedfordshire":{"name":"Central Bedfordshire","lat":52.000219,"lng":-0.499704,"pricePerSqm":3959},"Malvern Hills":{"name":"Malvern Hills","lat":52.10019,"lng":-2.30099,"pricePerSqm":3756},"East Suffolk":{"name":"East Suffolk","lat":52.099343,"lng":1.299986,"pricePerSqm":3133},"Stratford-on-Avon":{"name":"Stratford-on-Avon","lat":52.200192,"lng":-1.700629,"pricePerSqm":4344},"Cambridge":{"name":"Cambridge","lat":52.199557,"lng":0.099276,"pricePerSqm":5315},"East Cambridgeshire":{"name":"East Cambridgeshire","lat":52.20029,"lng":0.400879,"pricePerSqm":3840},"North Northamptonshire":{"name":"North Northamptonshire","lat":52.299263,"lng":-0.799384,"pricePerSqm":2855},"Wyre Forest":{"name":"Wyre Forest","lat":52.400833,"lng":-2.300095,"pricePerSqm":2539},"Solihull":{"name":"Solihull","lat":52.400275,"lng":-1.698692,"pricePerSqm":3680},"South Norfolk":{"name":"South Norfolk","lat":52.400228,"lng":1.300896,"pricePerSqm":3464},"Shropshire":{"name":"Shropshire","lat":52.500631,"lng":-2.89957,"pricePerSqm":3104},"Wolverhampton":{"name":"Wolverhampton","lat":52.600141,"lng":-2.149042,"pricePerSqm":2341},"Walsall":{"name":"Walsall","lat":52.600307,"lng":-2.000631,"pricePerSqm":2397},"Birmingham":{"name":"Birmingham","lat":52.60042,"lng":-1.850017,"pricePerSqm":2565},"Telford and Wrekin":{"name":"Telford and Wrekin","lat":52.700494,"lng":-2.450487,"pricePerSqm":2416},"Cannock Chase":{"name":"Cannock Chase","lat":52.700597,"lng":-2.000811,"pricePerSqm":2539},"South Holland":{"name":"South Holland","lat":52.699204,"lng":-0.050107,"pricePerSqm":2468},"Stafford":{"name":"Stafford","lat":52.799905,"lng":-2.000442,"pricePerSqm":2867},"Breckland":{"name":"Breckland","lat":52.800208,"lng":0.850152,"pricePerSqm":3019},"Rushcliffe":{"name":"Rushcliffe","lat":52.900135,"lng":-1.100397,"pricePerSqm":3754},"South Kesteven":{"name":"South Kesteven","lat":52.900049,"lng":-0.649738,"pricePerSqm":2860},"Broxtowe":{"name":"Broxtowe","lat":53.000505,"lng":-1.250171,"pricePerSqm":2829},"Gedling":{"name":"Gedling","lat":53.000632,"lng":-1.100948,"pricePerSqm":2800},"Conwy":{"name":"Conwy","lat":53.099899,"lng":-3.800476,"pricePerSqm":2344},"Cheshire East":{"name":"Cheshire East","lat":53.100237,"lng":-2.450102,"pricePerSqm":3338},"Ashfield":{"name":"Ashfield","lat":53.099945,"lng":-1.250249,"pricePerSqm":2085},"East Lindsey":{"name":"East Lindsey","lat":53.100453,"lng":-0.200033,"pricePerSqm":2430},"North East Derbyshire":{"name":"North East Derbyshire","lat":53.200402,"lng":-1.399832,"pricePerSqm":2704},"Wirral":{"name":"Wirral","lat":53.400318,"lng":-3.05015,"pricePerSqm":2474},"Liverpool":{"name":"Liverpool","lat":53.400297,"lng":-2.89958,"pricePerSqm":2000},"Manchester":{"name":"Manchester","lat":53.399838,"lng":-2.300831,"pricePerSqm":2814},"Stockport":{"name":"Stockport","lat":53.400349,"lng":-2.149351,"pricePerSqm":3447},"Sheffield":{"name":"Sheffield","lat":53.399488,"lng":-1.400345,"pricePerSqm":2449},"West Lindsey":{"name":"West Lindsey","lat":53.399576,"lng":-0.499097,"pricePerSqm":2314},"Wigan":{"name":"Wigan","lat":53.500156,"lng":-2.450513,"pricePerSqm":2104},"Salford":{"name":"Salford","lat":53.499926,"lng":-2.301041,"pricePerSqm":2476},"Oldham":{"name":"Oldham","lat":53.500227,"lng":-2.150893,"pricePerSqm":2360},"Sefton":{"name":"Sefton","lat":53.599875,"lng":-3.050439,"pricePerSqm":2486},"Rochdale":{"name":"Rochdale","lat":53.600385,"lng":-2.149527,"pricePerSqm":2297},"Kirklees":{"name":"Kirklees","lat":53.599374,"lng":-1.699447,"pricePerSqm":2263},"Rossendale":{"name":"Rossendale","lat":53.699828,"lng":-2.299195,"pricePerSqm":2222},"Calderdale":{"name":"Calderdale","lat":53.699767,"lng":-1.850227,"pricePerSqm":2092},"Wakefield":{"name":"Wakefield","lat":53.700734,"lng":-1.549909,"pricePerSqm":2211},"East Riding of Yorkshire":{"name":"East Riding of Yorkshire","lat":53.699718,"lng":-0.799969,"pricePerSqm":2446},"North Lincolnshire":{"name":"North Lincolnshire","lat":53.700686,"lng":-0.349998,"pricePerSqm":1979},"Blackpool":{"name":"Blackpool","lat":53.800097,"lng":-3.050047,"pricePerSqm":1513},"Ribble Valley":{"name":"Ribble Valley","lat":53.800247,"lng":-2.449793,"pricePerSqm":3078},"Leeds":{"name":"Leeds","lat":53.79998,"lng":-1.549729,"pricePerSqm":2720},"North Yorkshire":{"name":"North Yorkshire","lat":53.799981,"lng":-1.249612,"pricePerSqm":3019},"Pendle":{"name":"Pendle","lat":53.900251,"lng":-2.149598,"pricePerSqm":1635},"Newry, Mourne and Down":{"name":"Newry, Mourne and Down","lat":54.099463,"lng":-6.200407,"pricePerSqm":2431},"Westmorland and Furness":{"name":"Westmorland and Furness","lat":54.200622,"lng":-2.599931,"pricePerSqm":2473},"Fermanagh and Omagh":{"name":"Fermanagh and Omagh","lat":54.49945,"lng":-7.550495,"pricePerSqm":2143},"Belfast":{"name":"Belfast","lat":54.600234,"lng":-5.900273,"pricePerSqm":2011},"Hartlepool":{"name":"Hartlepool","lat":54.699613,"lng":-1.24924,"pricePerSqm":1453},"Cumberland":{"name":"Cumberland","lat":54.900463,"lng":-3.200057,"pricePerSqm":1912},"Sunderland":{"name":"Sunderland","lat":54.900262,"lng":-1.550838,"pricePerSqm":1597},"Newcastle upon Tyne":{"name":"Newcastle upon Tyne","lat":55.000073,"lng":-1.699954,"pricePerSqm":2313},"North Tyneside":{"name":"North Tyneside","lat":55.000646,"lng":-1.550471,"pricePerSqm":2236},"Northumberland":{"name":"Northumberland","lat":55.300145,"lng":-1.850532,"pricePerSqm":2311},"East Ayrshire":{"name":"East Ayrshire","lat":55.399341,"lng":-4.551034,"pricePerSqm":1453},"North Ayrshire":{"name":"North Ayrshire","lat":55.799759,"lng":-4.849709,"pricePerSqm":1497},"East Renfrewshire":{"name":"East Renfrewshire","lat":55.799615,"lng":-4.400349,"pricePerSqm":3222},"South Lanarkshire":{"name":"South Lanarkshire","lat":55.800132,"lng":-4.100782,"pricePerSqm":2011},"West Dunbartonshire":{"name":"West Dunbartonshire","lat":55.899995,"lng":-4.400101,"pricePerSqm":1416},"West Lothian":{"name":"West Lothian","lat":55.900513,"lng":-3.499416,"pricePerSqm":2394},"City of Edinburgh":{"name":"City of Edinburgh","lat":55.900015,"lng":-3.2007,"pricePerSqm":3282},"East Lothian":{"name":"East Lothian","lat":55.900192,"lng":-2.751127,"pricePerSqm":3017},"Argyll and Bute":{"name":"Argyll and Bute","lat":56.000523,"lng":-4.850185,"pricePerSqm":2004},"Falkirk":{"name":"Falkirk","lat":55.999803,"lng":-3.800529,"pricePerSqm":1880},"Stirling":{"name":"Stirling","lat":56.1004,"lng":-3.949705,"pricePerSqm":2505},"Fife":{"name":"Fife","lat":56.199902,"lng":-3.20032,"pricePerSqm":1930},"Angus":{"name":"Angus","lat":56.600334,"lng":-2.599702,"pricePerSqm":1894},"Aberdeenshire":{"name":"Aberdeenshire","lat":56.900298,"lng":-2.450541,"pricePerSqm":2209},"Highland":{"name":"Highland","lat":57.299865,"lng":-6.350051,"pricePerSqm":2346},"Moray":{"name":"Moray","lat":57.700287,"lng":-2.899656,"pricePerSqm":2179}}